[
  {
    "name": "Black Star Co-op",
    "type": "food",
    "values": [
      "locally-owned",
      "living-wage"
    ],
    "location": {
      "lat": 30.3382593,
      "lng": -97.7188884
    },
    "placeid": "ChIJw6LxOTbKRIYR6tMZVkiyTGI",
    "googleTypes": [
      "bar",
      "restaurant",
      "point_of_interest",
      "food",
      "establishment"
    ],
    "street": {
      "streetNumber": "7020",
      "street": "Easy Wind Dr",
      "neighborhood": "Crestview",
      "locality": "Austin",
      "county": "Travis County",
      "state": "TX",
      "country": "US",
      "zip": "78752"
    },
    "mapsUrl": "https://maps.google.com/?cid=7083232337698870250",
    "website": "http://www.blackstar.coop/"
  },
  {
    "name": "woom bikes USA",
    "type": "retail",
    "values": [
      "locally-owned"
    ],
    "location": {
      "lat": 30.37817059999999,
      "lng": -97.72126039999999
    },
    "placeid": "ChIJuYaR843LRIYRxL9VD2j4TV4",
    "googleTypes": [
      "bicycle_store",
      "store",
      "point_of_interest",
      "establishment"
    ],
    "street": {
      "subpremise": "100",
      "streetNumber": "2311",
      "street": "W Rundberg Ln",
      "neighborhood": "North Burnet",
      "locality": "Austin",
      "county": "Travis County",
      "state": "TX",
      "country": "US",
      "zip": "78758"
    },
    "mapsUrl": "https://maps.google.com/?cid=6795360538589511620",
    "website": "http://us.woombikes.com/"
  },
  {
    "name": "Kendra Scott",
    "type": "retail",
    "values": [
      "locally-owned",
      "women-owned"
    ],
    "location": {
      "lat": 30.3060028,
      "lng": -97.743175
    },
    "placeid": "ChIJM_9YFYfKRIYRXIiwEbNqVbo",
    "googleTypes": [
      "jewelry_store",
      "home_goods_store",
      "store",
      "point_of_interest",
      "establishment"
    ],
    "street": {
      "streetNumber": "3800",
      "street": "N Lamar Blvd",
      "neighborhood": "Rosedale",
      "locality": "Austin",
      "county": "Travis County",
      "state": "TX",
      "country": "US",
      "zip": "78756"
    },
    "mapsUrl": "https://maps.google.com/?cid=13426755181403474012",
    "website": "https://www.kendrascott.com/?utm_medium=organic&utm_source=google&utm_campaign=locallisting_lamar"
  },
  {
    "name": "Texas Farmers' Market at Mueller",
    "type": "retail",
    "values": [
      "locally-owned",
      "sustainable"
    ],
    "location": {
      "lat": 30.296611,
      "lng": -97.7072821
    },
    "placeid": "ChIJUfiJvfm1RIYR18aDhOnca8s",
    "googleTypes": [
      "point_of_interest",
      "establishment"
    ],
    "street": {
      "streetNumber": "4209",
      "street": "Airport Blvd",
      "neighborhood": "Mueller",
      "locality": "Austin",
      "county": "Travis County",
      "state": "TX",
      "country": "US",
      "zip": "78722"
    },
    "mapsUrl": "https://maps.google.com/?cid=14658052307716130519",
    "website": "http://texasfarmersmarket.org/mueller/"
  },
  {
    "name": "Service King Collision Repair of Austin",
    "type": "service",
    "values": [
      "recruits-veterans"
    ],
    "location": {
      "lat": 30.2284888,
      "lng": -97.77985249999999
    },
    "placeid": "ChIJm7_O5sm0RIYRAlgg23ipkC8",
    "googleTypes": [
      "car_repair",
      "point_of_interest",
      "establishment"
    ],
    "street": {
      "streetNumber": "1300",
      "street": "W Ben White Blvd",
      "neighborhood": "South Lamar",
      "locality": "Austin",
      "county": "Travis County",
      "state": "TX",
      "country": "US",
      "zip": "78704"
    },
    "mapsUrl": "https://maps.google.com/?cid=3427425652966447106",
    "website": "http://www.serviceking.com/locations/service-king-austin-south"
  },
  {
    "name": "Thai Fresh",
    "type": "food",
    "values": [
      "living-wage",
      "sustainable"
    ],
    "location": {
      "lat": 30.247849,
      "lng": -97.761729
    },
    "placeid": "ChIJX4dS6eC0RIYRa-_W4B6G1OY",
    "googleTypes": [
      "cafe",
      "bakery",
      "grocery_or_supermarket",
      "store",
      "restaurant",
      "point_of_interest",
      "food",
      "establishment"
    ],
    "street": {
      "streetNumber": "909",
      "street": "W Mary St",
      "neighborhood": "Bouldin",
      "locality": "Austin",
      "county": "Travis County",
      "state": "TX",
      "country": "US",
      "zip": "78704",
      "postal_code_suffix": "4177"
    },
    "mapsUrl": "https://maps.google.com/?cid=16633066790965407595",
    "website": "http://thai-fresh.com/"
  },
  {
    "name": "Bananarchy",
    "type": "food",
    "values": [
      "women-owned",
      "sustainable",
      "locally-owned"
    ],
    "location": {
      "lat": 30.2444054,
      "lng": -97.758124
    },
    "placeid": "ChIJS8vlbRm1RIYRzipYa4SJ7ko",
    "googleTypes": [
      "bar",
      "restaurant",
      "point_of_interest",
      "food",
      "establishment"
    ],
    "street": {
      "streetNumber": "603",
      "street": "W Live Oak St",
      "neighborhood": "Bouldin",
      "locality": "Austin",
      "county": "Travis County",
      "state": "TX",
      "country": "US",
      "zip": "78704"
    },
    "mapsUrl": "https://maps.google.com/?cid=5399404205093432014",
    "website": "http://www.bananarchy.net/"
  },
  {
    "name": "VMC Pharmacy Health & Wellness Products",
    "type": "retail",
    "values": [
      "locally-owned"
    ],
    "location": {
      "lat": 30.2322543,
      "lng": -97.7911433
    },
    "placeid": "ChIJ44y9rzZLW4YRdovMBe-_a3M",
    "googleTypes": [
      "pharmacy",
      "store",
      "health",
      "point_of_interest",
      "establishment"
    ],
    "street": {
      "streetNumber": "4289",
      "street": "Victory Dr",
      "neighborhood": "South Lamar",
      "locality": "Austin",
      "county": "Travis County",
      "state": "TX",
      "country": "US",
      "zip": "78704"
    },
    "mapsUrl": "https://maps.google.com/?cid=8316952170185132918"
  }
]
